,City,Lat,Lng,Max Temp,Humidity,Cloudiness,Wind Speed,Country,Date
0,Hilo,19.7297,-155.09,78.53,77,0,14.97,US,1673921929
1,Katsuura,35.1333,140.3,47.64,60,95,9.22,JP,1673922129
2,Hong Kong,22.2855,114.1577,57.33,78,100,11.01,HK,1673922105
3,Stepnyak,52.8339,70.7803,10.65,80,100,7.63,KZ,1673922130
4,Grenfell,-33.9,148.1667,91.29,20,0,4.03,AU,1673922130
5,Barrow,71.2906,-156.7887,-20.18,76,100,16.11,US,1673922131
6,Mataura,-46.1927,168.8643,68.59,51,87,6.44,NZ,1673922131
7,Dhanera,24.5167,72.0167,47.8,23,0,4.68,IN,1673922132
8,Kapaa,22.0752,-159.319,81.12,71,0,6.91,US,1673922132
9,Port Elizabeth,-33.918,25.5701,71.31,99,100,8.05,ZA,1673922133
10,Busselton,-33.65,115.3333,66.81,37,1,9.57,AU,1673921835
11,Punta Arenas,-53.15,-70.9167,48.31,49,0,18.41,CL,1673921962
12,Hermanus,-34.4187,19.2345,73.8,84,97,13.94,ZA,1673922134
13,Goundi,9.3627,17.366,70.95,26,94,4.21,TD,1673922134
14,Ushuaia,-54.8,-68.3,46.06,57,40,5.75,AR,1673921964
15,Yerbogachën,61.2767,108.0108,-61.08,100,67,3.47,RU,1673922135
16,Rikitea,-23.1203,-134.9692,77.79,68,2,5.79,PF,1673922043
17,Tuktoyaktuk,69.4541,-133.0374,-5.8,77,100,6.91,CA,1673922136
18,Broome,42.2506,-75.833,27.66,81,0,5.75,US,1673922136
19,Peniche,39.3558,-9.3811,58.28,93,100,29.48,PT,1673922137
20,Teeli,51.0333,90.2333,-9.04,95,91,1.74,RU,1673922085
21,Takapau,-40.0333,176.35,76.73,53,58,7.05,NZ,1673922138
22,Yaan,7.3833,8.5667,75.02,21,36,4.54,NG,1673922138
23,Itoman,26.1247,127.6694,64.42,63,75,13.8,JP,1673922139
24,Kaitangata,-46.2817,169.8464,67.05,60,81,11.79,NZ,1673922139
25,Nuevo Progreso,23.1667,-97.95,64.89,71,65,1.99,MX,1673922140
26,Avarua,-21.2078,-159.775,80.65,69,20,6.91,CK,1673922141
27,Bethel,41.3712,-73.414,36.48,58,0,4.61,US,1673922142
28,Yar-Sale,66.8333,70.8333,6.28,96,100,13.73,RU,1673922142
29,New Norfolk,-42.7826,147.0587,82.71,29,38,2.04,AU,1673921854
30,Carnarvon,-24.8667,113.6333,78.55,47,0,21.83,AU,1673922143
31,Ponta do Sol,32.6667,-17.1,59.63,59,32,4.45,PT,1673922144
32,Atuona,-9.8,-139.0333,78.19,76,15,16.08,PF,1673921920
33,Saskylakh,71.9167,114.0833,-24.59,98,49,7.63,RU,1673922145
34,Ahipara,-35.1667,173.1667,71.91,57,27,8.66,NZ,1673922123
35,Clarence Town,-32.5833,151.7833,81.61,51,88,9.22,AU,1673922147
36,Acaraú,-2.8856,-40.12,76.28,86,100,3.65,BR,1673922148
37,Santa María del Oro,25.9333,-105.3667,54.97,31,3,10.09,MX,1673922148
38,Bluff,-46.6,168.3333,60.15,76,78,10.4,NZ,1673922149
39,Hervey Bay,-25.2986,152.8535,72.01,97,100,8.01,AU,1673922150
40,Taltal,-25.4,-70.4833,66.47,80,5,3.98,CL,1673922021
41,Eunice,30.4944,-92.4176,69.01,93,100,11.65,US,1673922150
42,George Town,5.4112,100.3354,84.13,73,20,8.05,MY,1673922088
43,Xichang,27.8964,102.2634,36.52,56,14,3.85,CN,1673922151
44,Bereket,39.2446,55.5154,24.93,67,84,11.79,TM,1673922151
45,Hrebinka,50.1171,32.4361,35.74,89,100,18.92,UA,1673922152
46,Kavieng,-2.5744,150.7967,83.41,69,100,8.14,PG,1673922152
47,Longyearbyen,78.2186,15.6401,15.64,67,0,24.16,SJ,1673922047
48,Port Alfred,-33.5906,26.891,73.18,98,100,1.01,ZA,1673922084
49,Cape Town,-33.9258,18.4232,72.12,75,0,10.36,ZA,1673922153
50,Waitati,-45.75,170.5667,66.79,61,83,6.82,NZ,1673922153
51,Bathsheba,13.2167,-59.5167,79.41,73,75,13.8,BB,1673922153
52,St Albans,51.75,-0.3333,27.97,90,67,6.91,GB,1673922154
53,Chokurdakh,70.6333,147.9167,-24.23,96,89,11.45,RU,1673922154
54,Nanortalik,60.1432,-45.2371,10.29,60,5,15.5,GL,1673922155
55,Bambanglipuro,-7.95,110.2833,81.27,77,98,4.5,ID,1673922155
56,Diffa,13.3154,12.6113,63.36,31,97,9.6,NE,1673922155
57,Tanabe,33.7333,135.3667,49.21,43,20,5.75,JP,1673922156
58,Jamestown,42.097,-79.2353,35.24,64,0,6.91,US,1673922085
59,Mar del Plata,-38.0023,-57.5575,69.82,93,75,11.99,AR,1673922157
60,Vardø,70.3705,31.1107,35.58,87,100,18.41,NO,1673922157
61,Saint Paul Harbor,57.79,-152.4072,35.11,93,100,12.66,US,1673922157
62,Cisternino,40.7445,17.4243,54.05,82,99,14.0,IT,1673922158
63,Okhotsk,59.3833,143.3,-16.49,86,100,12.91,RU,1673922158
64,São João da Barra,-21.6403,-41.0511,75.36,89,0,15.66,BR,1673922159
65,Labranzagrande,5.5622,-72.575,67.5,78,97,2.68,CO,1673922159
66,Sakakah,29.9697,40.2064,51.37,91,45,8.59,SA,1673921939
67,São José da Coroa Grande,-8.8978,-35.1478,77.22,80,100,6.29,BR,1673922159
68,Chui,-33.6971,-53.4616,67.55,80,0,8.43,UY,1673922130
69,Kon Tum,14.35,108.0,72.72,63,93,5.7,VN,1673922160
70,Teknāf,20.8624,92.3058,65.3,55,0,6.02,BD,1673922160
71,Saint George,37.1041,-113.5841,49.95,69,20,18.41,US,1673922056
72,Uchaly,54.2996,59.4521,-2.31,75,5,4.92,RU,1673922080
73,Akonolinga,3.7667,12.25,63.72,59,78,1.16,CM,1673922161
74,Ilulissat,69.2167,-51.1,-5.78,59,75,23.02,GL,1673922161
75,Praia da Vitória,38.7333,-27.0667,57.76,82,75,12.73,PT,1673922162
76,Paita,-5.0892,-81.1144,70.36,80,79,9.95,PE,1673922162
77,Kahului,20.8947,-156.47,80.62,70,75,6.91,US,1673922163
78,Port Lincoln,-34.7333,135.8667,70.07,87,100,6.4,AU,1673922163
79,San Jose,37.3394,-121.895,51.62,80,75,6.91,US,1673922096
80,Agadir,30.4202,-9.5982,48.65,77,0,4.38,MA,1673922163
81,Borogontsy,62.6683,131.1683,-56.42,100,94,2.46,RU,1673922164
82,Batouri,4.4333,14.3667,68.16,35,100,1.9,CM,1673922164
83,Kirakira,-10.4544,161.9205,84.56,73,81,8.61,SB,1673922165
84,Bredasdorp,-34.5322,20.0403,69.8,92,100,16.02,ZA,1673922165
85,Mogadishu,2.0371,45.3438,75.16,80,5,15.32,SO,1673922166
86,Narsaq,60.9167,-46.05,5.22,65,24,12.17,GL,1673922028
87,San Policarpo,12.1791,125.5072,80.8,84,96,1.74,PH,1673922166
88,Khatanga,71.9667,102.5,-40.16,98,25,6.51,RU,1673922167
89,Coquimbo,-29.9533,-71.3436,62.33,77,0,6.91,CL,1673922167
90,Ribeira Grande,38.5167,-28.7,57.65,73,94,11.56,PT,1673922167
91,Puerto Ayora,-0.7393,-90.3518,75.54,95,67,5.86,EC,1673922168
92,Bengkulu,-3.8004,102.2655,80.71,73,76,3.04,ID,1673922168
93,Burns Lake,54.2331,-125.7533,27.82,98,100,3.49,CA,1673922168
94,Korla,41.7597,86.1469,3.36,94,77,1.72,CN,1673922169
95,Lázaro Cárdenas,17.9583,-102.2,75.49,75,9,4.21,MX,1673922169
96,Nieuw Amsterdam,5.8833,-55.0833,77.02,89,62,9.44,SR,1673922170
97,Vestmanna,62.1564,-7.1664,22.12,93,75,4.61,FO,1673922170
98,Hofn,64.2539,-15.2082,32.29,59,100,20.27,IS,1673922170
99,East London,-33.0153,27.9116,73.67,93,100,5.5,ZA,1673922171
100,Srednekolymsk,67.45,153.6833,-46.39,99,69,5.35,RU,1673922171
101,Hobyo,5.3505,48.5268,75.54,75,1,17.31,SO,1673922171
102,Jacareacanga,-6.2222,-57.7528,72.52,98,95,0.56,BR,1673922172
103,Sudak,44.85,34.9667,44.71,83,100,4.07,UA,1673922172
104,Huarmey,-10.0681,-78.1522,70.3,75,100,5.68,PE,1673922173
105,Beringovskiy,63.05,179.3167,-4.45,89,100,20.24,RU,1673922165
106,Ebensee,47.8072,13.779,38.68,88,100,2.57,AT,1673922173
107,Laguna,38.421,-121.4238,53.58,78,100,8.05,US,1673921906
108,Teya,60.3778,92.6267,-8.5,99,100,3.62,RU,1673922174
109,College,64.8569,-147.8028,4.95,85,75,0.0,US,1673922174
110,Samarai,-10.6167,150.6667,83.21,70,100,4.12,PG,1673922095
111,Bousso,10.4795,16.7117,69.01,25,65,7.36,TD,1673922175
112,Vestmannaeyjar,63.4427,-20.2734,28.6,69,14,19.15,IS,1673922175
113,Klaksvík,62.2266,-6.589,23.92,60,100,20.11,FO,1673922176
114,Kailua,21.4022,-157.7394,82.38,75,79,1.99,US,1673922176
115,Dingle,10.9995,122.6711,81.79,82,50,7.81,PH,1673922177
116,Lorengau,-2.0226,147.2712,83.19,72,100,5.1,PG,1673922108
117,Bambous Virieux,-20.3428,57.7575,79.21,73,40,12.66,MU,1673922177
118,Ibrā’,22.6906,58.5334,60.66,56,77,1.63,OM,1673922177
119,Mehamn,71.0357,27.8492,33.75,80,100,4.61,NO,1673922178
120,Pangkalanbuun,-2.6833,111.6167,86.41,62,96,3.49,ID,1673922178
121,Berlevåg,70.8578,29.0864,33.8,80,75,10.36,NO,1673922179
122,Kumul,42.8,93.45,12.47,45,0,5.3,CN,1673922179
123,Bara,10.3744,10.7288,64.29,29,100,7.56,NG,1673922180
124,Ouégoa,-20.35,164.4333,82.53,66,100,11.52,NC,1673922180
125,Cidreira,-30.1811,-50.2056,74.23,82,69,11.12,BR,1673922180
126,Kānker,20.2719,81.4931,61.14,65,0,3.24,IN,1673922181
127,Faanui,-16.4833,-151.75,81.84,58,91,15.39,PF,1673922181
128,Soyaux,45.65,0.2,40.98,90,100,10.36,FR,1673922182
129,Albany,42.6001,-73.9662,29.26,68,10,1.01,US,1673921887
130,Syriam,16.7722,96.2378,73.51,88,46,3.44,MM,1673922184
131,Leningradskiy,69.3833,178.4167,-31.04,96,10,4.29,RU,1673922185
132,Alice Springs,-23.7,133.8833,92.75,40,2,10.36,AU,1673922186
133,Raudeberg,61.9875,5.1352,36.27,64,100,8.37,NO,1673922186
134,Brae,60.3964,-1.353,39.36,63,95,20.87,GB,1673922036
135,Cherskiy,68.75,161.3,-35.77,95,100,3.22,RU,1673922103
136,Esperance,-33.8667,121.9,62.28,57,94,14.2,AU,1673922187
137,Zacualpan,21.25,-105.1667,69.26,63,100,3.44,MX,1673922188
138,Vila Franca do Campo,37.7167,-25.4333,55.81,81,99,6.58,PT,1673922188
139,Lüderitz,-26.6481,15.1594,66.65,85,100,1.48,NA,1673922122
140,Hasaki,35.7333,140.8333,43.21,49,98,5.7,JP,1673922189
141,Hirara,24.8,125.2833,67.86,72,75,11.5,JP,1673921914
142,Gardez,33.5974,69.2259,9.77,41,0,3.33,AF,1673922190
143,Chutove,49.7104,35.1603,32.88,81,100,14.18,UA,1673922119
144,Grand Gaube,-20.0064,57.6608,79.38,69,9,10.0,MU,1673922191
145,Souillac,-20.5167,57.5167,79.18,73,40,12.66,MU,1673922191
146,Batagay,67.6333,134.6333,-47.97,99,100,0.47,RU,1673922192
147,Socuéllamos,39.2858,-2.7921,45.37,82,100,38.07,ES,1673922192
148,Aksarka,66.5606,67.7975,14.49,96,100,6.4,RU,1673922193
149,San Rafael del Sur,11.8485,-86.4384,74.37,61,6,12.5,NI,1673922193
150,Arraial do Cabo,-22.9661,-42.0278,74.12,90,1,22.39,BR,1673922194
151,Hobart,-42.8794,147.3294,83.05,50,20,12.66,AU,1673922019
152,Kekri,25.9667,75.15,43.07,38,0,4.76,IN,1673922195
153,San Luis,-33.295,-66.3356,77.14,33,47,11.59,AR,1673922195
154,Deniliquin,-35.5333,144.9667,96.98,24,0,11.52,AU,1673922196
155,Cabo San Lucas,22.8909,-109.9124,71.51,71,40,8.05,MX,1673922107
156,Vaini,-21.2,-175.2,84.36,74,75,8.05,TO,1673922197
157,Pevek,69.7008,170.3133,-31.41,99,15,1.74,RU,1673922094
158,Zhangaözen,43.3,52.8,23.27,40,5,11.65,KZ,1673922198
159,Starobaltachevo,56.0013,55.9213,-2.29,85,3,4.85,RU,1673921969
160,Petropavl,54.8753,69.1628,3.18,66,0,11.18,KZ,1673922198
161,Isangel,-19.55,169.2667,82.31,61,98,11.72,VU,1673922199
162,Krasnosel'kup,65.7,82.4667,-34.15,98,13,5.93,RU,1673922199
163,Poum,-20.2333,164.0167,80.55,69,99,10.4,NC,1673922200
164,Santa Isabel Rio Negro,-0.4139,-65.0192,72.82,88,99,1.01,BR,1673922200
165,Arkhara,49.4212,130.0842,-6.52,95,100,5.79,RU,1673922201
166,Codrington,-38.2667,141.9667,97.63,18,89,12.86,AU,1673922201
167,Northampton,40.8754,-75.2499,36.64,49,1,5.14,US,1673922164
168,Bowmore,34.9421,-79.3031,50.76,61,0,0.0,US,1673922202
169,Butaritari,3.0707,172.7902,80.76,79,17,14.67,KI,1673922203
170,Santa Cruz de La Palma,28.6835,-17.7642,64.54,59,100,6.91,ES,1673922204
171,Saldanha,-33.0117,17.9442,60.85,89,3,4.7,ZA,1673922205
172,Buluang,13.3068,123.3425,81.03,80,100,6.17,PH,1673922205
173,Eureka,40.8021,-124.1637,48.92,87,45,5.01,US,1673922119
174,Departamento de Maldonado,-34.6667,-54.9167,69.22,81,0,8.57,UY,1673922137
175,Stornoway,58.2093,-6.3865,31.96,89,75,9.22,GB,1673922206
176,Qaanaaq,77.484,-69.3632,-13.34,62,70,5.77,GL,1673922131
177,San Andrés,12.5847,-81.7006,78.82,73,40,11.5,CO,1673922208
178,Moose Factory,51.2585,-80.6094,32.0,64,100,3.44,CA,1673922209
179,Bismil,37.8486,40.6658,38.93,81,51,2.95,TR,1673922210
180,Ko Samui,9.5357,99.9357,80.51,69,20,3.44,TH,1673922211
181,Alta Floresta,-9.8756,-56.0861,71.2,96,100,1.28,BR,1673921978
182,Harnai,30.1005,67.9374,42.87,27,0,3.06,PK,1673922212
183,Vicam,27.6333,-110.2833,60.98,72,3,3.04,MX,1673922212
184,Hithadhoo,-0.6,73.0833,79.36,67,70,4.32,MV,1673922213
185,Botou,38.0667,116.5667,30.31,38,66,2.73,CN,1673922213
186,Stromness,58.965,-3.296,35.87,75,100,18.99,GB,1673922213
187,Lagoa,39.05,-27.9833,58.17,73,100,14.03,PT,1673922214
188,Kumano,34.3442,132.5894,45.52,62,100,3.42,JP,1673922214
189,Cap-aux-Meules,47.3821,-61.8597,37.45,100,100,21.85,CA,1673922215
190,Tevaitoa,-16.7833,-151.5,80.85,60,82,12.19,PF,1673922215
191,Nikolskoye,59.7035,30.7861,35.49,93,100,8.57,RU,1673922047
192,Padang,-0.9492,100.3543,80.64,72,99,2.39,ID,1673922216
193,Yellowknife,62.456,-114.3525,7.32,85,100,10.36,CA,1673922053
194,Ellensburg,46.9965,-120.5479,37.54,86,100,0.0,US,1673922216
195,Mlowo,-9.0,32.9833,58.15,93,99,1.25,TZ,1673922217
196,Bhiwāni,28.7833,76.1333,39.52,37,0,3.94,IN,1673922116
197,Tétouan,35.5711,-5.3724,56.17,72,77,16.11,MA,1673922155
198,Tuatapere,-46.1333,167.6833,64.26,65,52,8.48,NZ,1673922217
199,Kolokani,13.5728,-8.0339,66.56,17,6,8.57,ML,1673922218
200,Berzasca,44.6476,21.9526,43.97,96,100,6.33,RO,1673922218
201,Sitka,57.0531,-135.33,42.69,70,75,16.11,US,1673922154
202,Airai,-8.9266,125.4092,73.51,61,65,3.06,TL,1673922219
203,Cockburn Town,21.4612,-71.1419,74.25,53,0,9.08,TC,1673921934
204,Tesistán,20.7833,-103.4833,61.83,26,100,2.77,MX,1673922219
205,Mayo,38.8876,-76.5119,46.35,43,0,5.75,US,1673922220
206,Nuuk,64.1835,-51.7216,12.51,75,100,11.18,GL,1673922220
207,Port Blair,11.6667,92.75,68.04,88,40,2.3,IN,1673922220
208,Jiwani,25.05,61.7417,64.62,32,64,10.76,PK,1673922221
209,Guerrero Negro,27.9769,-114.0611,64.8,76,100,12.73,MX,1673922221
210,Pundaguitan,6.3711,126.1689,81.25,78,91,6.29,PH,1673922222
211,Pudozh,61.8099,36.5345,29.62,92,95,12.12,RU,1673922222
212,Terrace,54.5163,-128.6035,37.31,100,100,3.44,CA,1673921999
213,Dryden,49.7833,-92.7503,32.29,93,100,6.91,CA,1673922223
214,Pascagoula,30.3658,-88.5561,62.65,95,20,0.0,US,1673921997
215,Honiara,-9.4333,159.95,86.85,65,100,7.14,SB,1673922223
216,Ostrovnoy,68.0531,39.5131,29.75,86,74,23.6,RU,1673921935
217,Buala,-8.145,159.5921,85.8,67,100,4.47,SB,1673922224
218,Celestún,20.8667,-90.4,73.31,64,53,9.71,MX,1673922224
219,Matamoros,25.5333,-103.25,69.91,17,0,0.0,MX,1673922225
220,San Patricio,28.017,-97.5169,68.09,79,0,3.83,US,1673922213
221,Paamiut,61.994,-49.6678,5.29,71,100,13.78,GL,1673922225
222,Provideniya,64.3833,-173.3,3.31,60,75,29.08,RU,1673922027
223,Angarsk,52.5367,103.8864,3.92,88,100,1.99,RU,1673922226
224,Tiksi,71.6872,128.8694,-21.71,100,100,7.36,RU,1673922226
225,Saint Thomas,13.1833,-59.5833,76.32,73,75,13.8,BB,1673922227
226,Abnūb,27.2696,31.1511,48.42,71,0,3.6,EG,1673922227
227,Thunder Bay,48.4001,-89.3168,33.78,93,100,12.66,CA,1673922110
228,Kiunga,-6.1219,141.2906,94.32,45,37,1.9,PG,1673922228
229,Clyde River,70.4692,-68.5914,-10.97,77,100,6.91,CA,1673922228
230,Oddur,4.1213,43.8894,66.11,79,29,13.38,SO,1673922228
231,Norman Wells,65.282,-126.8329,5.04,72,100,10.36,CA,1673922229
232,Saint-Augustin,51.226,-58.6502,31.73,96,100,25.88,CA,1673922229
233,Kathu,7.9178,98.3332,80.42,67,94,7.81,TH,1673922230
234,Hay River,60.8156,-115.7999,12.18,85,75,6.91,CA,1673921960
235,Qaqortoq,60.7167,-46.0333,-5.17,66,25,12.19,GL,1673922048
236,Dikson,73.5069,80.5464,-35.07,86,3,6.06,RU,1673922083
237,Gorontalo,0.5412,123.0595,88.25,61,55,1.14,ID,1673922230
238,Benguela,-12.5763,13.4055,77.83,73,100,4.76,AO,1673922231
239,Presidencia Roque Sáenz Peña,-26.7852,-60.4388,75.63,47,0,6.26,AR,1673922231
240,Edéia,-17.3383,-49.9314,71.56,89,100,4.05,BR,1673922232
241,Walla Walla,46.0646,-118.343,41.77,80,0,6.91,US,1673921958
242,Mersing,2.4312,103.8405,82.31,74,40,12.66,MY,1673922232
243,Tasiilaq,65.6145,-37.6368,19.56,74,100,7.76,GL,1673922233
244,Hamilton,39.1834,-84.5333,47.44,91,100,17.27,US,1673922166
245,Thompson,55.7435,-97.8558,10.56,85,100,2.3,CA,1673922233
246,Alanya,36.5438,31.9998,50.13,68,23,5.97,TR,1673922234
247,Solenzo,12.1833,-4.0833,70.14,19,5,7.14,BF,1673922234
248,São Filipe,14.8961,-24.4956,76.51,62,100,7.09,CV,1673922234
249,Huron,41.1501,-82.5499,38.01,89,100,15.95,US,1673922235
250,Rawson,-43.3002,-65.1023,64.94,60,100,8.05,AR,1673922235
251,Harnoli,32.2792,71.5539,44.69,17,0,5.75,PK,1673922236
252,Port Augusta,-32.5,137.7667,106.45,16,13,16.55,AU,1673922236
253,Bonavista,48.6499,-53.1147,37.17,100,100,21.88,CA,1673922236
254,Arrondissement de Troyes,48.3333,4.0833,36.37,100,100,6.91,FR,1673922237
255,Fort Saint James,54.4333,-124.25,31.33,98,100,2.75,CA,1673922237
256,Amarante do Maranhão,-5.5667,-46.7422,69.71,97,27,3.56,BR,1673922238
257,Carutapera,-1.195,-46.02,73.54,95,67,4.94,BR,1673922238
258,Ossora,59.2353,163.0719,-3.08,85,94,3.62,RU,1673922238
259,Zaozyornoye,45.1582,33.2787,44.65,77,100,10.54,UA,1673922239
260,Lebu,-37.6167,-73.65,55.47,89,0,15.52,CL,1673922239
261,Xingcheng,40.6167,120.7167,24.85,39,1,4.59,CN,1673922240
262,Anadyr,64.75,177.4833,-7.1,71,0,15.66,RU,1673922225
263,Ginir,7.1333,40.7,53.69,43,37,3.96,ET,1673922240
264,Ryōtsu-minato,38.0833,138.4333,38.75,56,100,8.66,JP,1673922240
265,Rocha,-34.4833,-54.3333,63.86,93,0,6.35,UY,1673922241
266,Uíge,-7.6087,15.0613,65.97,98,100,2.28,AO,1673922241
267,Salalah,17.0151,54.0924,73.49,78,75,2.3,OM,1673922110
268,Lompoc,34.6391,-120.4579,48.92,92,100,9.22,US,1673922243
269,Hvolsvollur,63.7533,-20.2243,16.47,79,81,10.63,IS,1673922244
270,Sambava,-14.2667,50.1667,73.45,89,100,5.48,MG,1673922244
271,Morón,-34.6534,-58.6198,82.96,64,73,10.67,AR,1673922245
272,Venice,27.0998,-82.4543,57.97,81,0,4.61,US,1673922245
273,Songjianghe,42.1859,127.479,12.24,50,7,7.11,CN,1673922246
274,Mahébourg,-20.4081,57.7,79.25,73,40,12.66,MU,1673922247
275,Torbay,47.6666,-52.7314,48.38,98,100,14.97,CA,1673922247
276,Pitimbu,-7.4706,-34.8086,77.59,79,100,9.06,BR,1673922131
277,Camacha,33.0833,-16.3333,56.62,72,75,13.8,PT,1673922248
278,Narasannapeta,18.4167,84.05,70.27,84,75,3.49,IN,1673922250
279,Chincha Alta,-13.4099,-76.1323,70.39,79,100,1.9,PE,1673922250
280,Iaciara,-14.0958,-46.6317,71.64,78,100,3.36,BR,1673922251
281,Mossamedes,-15.1961,12.1522,73.89,77,98,5.28,AO,1673922251
282,Turukhansk,65.8167,87.9833,-31.49,84,7,6.91,RU,1673922085
283,Poronaysk,49.2167,143.1167,-4.99,83,20,2.28,RU,1673922252
284,Pastavy,55.1168,26.8326,32.52,98,100,12.5,BY,1673922253
285,Oistins,13.0667,-59.5333,78.89,73,75,13.8,BB,1673922253
286,Assiniboia,49.6334,-105.9845,17.42,93,100,2.3,CA,1673922254
287,Nago,26.5881,127.9761,63.03,72,96,12.62,JP,1673922254
288,Shubarkuduk,49.1447,56.4872,6.98,75,20,9.28,KZ,1673922255
289,Bagotville,-28.9833,153.4167,82.85,66,9,10.78,AU,1673922255
290,Hoopstad,-27.8327,25.9083,66.0,29,0,5.93,ZA,1673922256
291,Constitución,-35.3333,-72.4167,54.16,89,10,6.73,CL,1673922202
292,São Gabriel da Cachoeira,-0.1303,-67.0892,72.19,99,100,2.28,BR,1673922151
293,Ürümqi,43.801,87.6005,-13.85,84,75,0.0,CN,1673922012
294,Viedma,-40.8135,-62.9967,72.19,37,97,15.23,AR,1673922257
295,Banda Aceh,5.5577,95.3222,79.09,75,61,15.32,ID,1673922242
296,West Fargo,46.875,-96.9004,23.05,89,100,21.85,US,1673922123
297,Kautokeino,69.0125,23.0412,3.88,99,88,4.79,NO,1673922258
298,Castro,-24.7911,-50.0119,65.46,94,100,1.01,BR,1673922259
299,San Cristobal,7.7669,-72.225,68.18,94,60,2.62,VE,1673922259
300,Tual,-5.6667,132.75,83.3,71,100,6.55,ID,1673922260
301,Lavrentiya,65.5833,-171.0,-16.89,90,97,13.96,RU,1673922185
302,Methóni,36.8197,21.7049,59.22,76,61,20.71,GR,1673922261
303,Mumford,5.2618,-0.759,79.02,85,5,3.62,GH,1673922261
304,Shenkursk,62.1091,42.896,23.05,89,100,13.33,RU,1673922149
305,Loandjili,-4.7561,11.8578,77.5,88,100,3.2,CG,1673922262
306,Severo-Kuril'sk,50.6789,156.125,23.34,62,95,14.18,RU,1673922262
307,Colac,-38.3333,143.5833,94.17,24,3,10.92,AU,1673922263
308,Coyhaique,-45.5752,-72.0662,56.01,71,0,2.3,CL,1673922263
309,Ilebo,-4.3167,20.5833,69.28,99,100,2.39,CD,1673922264
310,Tooele,40.5308,-112.2983,34.45,96,100,5.48,US,1673922264
311,Tokur,53.1333,132.9,-22.94,93,100,3.0,RU,1673922265
312,Xining,36.6167,101.7667,5.94,86,97,2.21,CN,1673922266
313,Cabrera,19.6426,-69.9049,73.02,63,13,8.16,DO,1673922267
314,Nahariya,33.0059,35.0941,55.04,78,7,6.85,IL,1673922267
315,Otane,-39.8833,176.6333,72.88,52,42,9.55,NZ,1673922268
316,Meulaboh,4.1363,96.1285,76.12,84,100,5.64,ID,1673922269
317,Skibbereen,51.55,-9.2667,32.11,95,100,6.71,IE,1673922270
318,Talnakh,69.4865,88.3972,-34.62,84,3,3.83,RU,1673922102
319,Upernavik,72.7868,-56.1549,-2.96,96,100,6.02,GL,1673922270
320,Doha,25.2867,51.5333,67.98,88,0,4.61,QA,1673922031
321,Grand-Santi,4.25,-54.3833,70.77,99,54,2.1,GF,1673922271
322,Hillsborough,37.5741,-122.3794,51.66,80,75,18.41,US,1673922140
323,Yuci,37.6803,112.7319,24.55,33,0,8.95,CN,1673922272
324,Dehlorān,32.6941,47.2679,54.72,81,18,2.77,IR,1673922272
325,Louis Trichardt,-23.0439,29.9032,65.48,92,100,5.97,ZA,1673922272
326,Pangnirtung,66.1451,-65.7125,-29.2,62,0,5.75,CA,1673922273
327,Soto la Marina,23.7667,-98.2167,66.45,93,0,4.29,MX,1673922273
328,Gigmoto,13.7796,124.39,77.92,91,100,12.41,PH,1673922274
329,Albino,45.7638,9.7964,39.36,94,85,3.44,IT,1673922274
330,Ishigaki,24.3448,124.1572,68.13,64,40,12.66,JP,1673922274
331,Sikasso,10.9167,-7.0,71.62,17,4,5.59,ML,1673922275
332,Zhigansk,66.7697,123.3711,-58.79,100,72,3.94,RU,1673922275
333,Iqaluit,63.7506,-68.5145,-24.07,69,0,0.0,CA,1673922211
334,Taoudenni,22.6783,-3.9836,63.68,23,70,9.98,ML,1673922276
335,Melukote,12.6589,76.6506,57.63,61,25,1.48,IN,1673922276
336,Pisco,-13.7,-76.2167,71.65,78,0,8.05,PE,1673922117
337,Burnie,-41.0667,145.9167,72.95,73,100,10.27,AU,1673922276
338,Carballo,43.213,-8.691,54.01,88,32,15.55,ES,1673922277
339,Yangi Marg`ilon,40.4272,71.7189,11.12,79,3,2.3,UZ,1673922277
340,Caravelas,-17.7125,-39.2481,74.43,89,9,5.44,BR,1673922278
341,Beian,63.6559,9.5683,35.01,75,99,15.86,NO,1673922278
342,Richards Bay,-28.783,32.0377,71.11,92,86,9.64,ZA,1673922278
343,Nome,64.5011,-165.4064,19.47,73,100,13.8,US,1673922279
344,Naze,28.3667,129.4833,58.12,63,60,10.87,JP,1673922114
345,Loíza,18.4313,-65.8802,77.07,72,63,11.14,PR,1673922279
346,Palmer,42.1584,-72.3287,34.47,70,40,9.22,US,1673922184
347,Comodoro Rivadavia,-45.8667,-67.5,60.66,48,0,5.75,AR,1673922212
348,Mount Isa,-20.7333,139.5,85.77,54,100,8.05,AU,1673922280
349,Atherton,53.5237,-2.4935,32.9,90,15,1.79,GB,1673922280
350,Atlantic Beach,30.3344,-81.3987,57.18,72,0,4.61,US,1673922281
351,Tiznit Province,29.5833,-9.5,52.41,70,0,0.92,MA,1673922281
352,Komsomolets,53.7453,62.0708,-4.16,82,6,6.4,KZ,1673922282
353,Avera,33.194,-82.5271,50.56,52,100,6.71,US,1673922282
354,Gornopravdinsk,60.05,69.9,12.4,94,92,8.39,RU,1673922282
355,Northam,51.0333,-4.2167,33.62,69,100,8.72,GB,1673922283
356,Nhulunbuy,-12.2333,136.7667,88.41,62,75,8.05,AU,1673922283
357,El Seibo,18.7641,-69.0375,65.73,79,0,5.48,DO,1673922283
358,Basco,20.4487,121.9702,73.02,72,100,28.86,PH,1673922284
359,Muros,42.7762,-9.0603,55.09,71,7,26.11,ES,1673922284
360,Hohhot,40.8106,111.6522,8.89,66,11,2.24,CN,1673922285
361,Ramona,33.0417,-116.8681,51.69,89,40,8.05,US,1673922285
362,Kropotkin,45.4375,40.5756,32.67,76,0,8.16,RU,1673922285
363,Tabuk,17.4189,121.4443,73.18,86,96,8.7,PH,1673922286
364,Solnechnyy,50.7214,136.6319,-11.81,86,100,3.0,RU,1673922192
365,Kruisfontein,-34.0033,24.7314,70.25,94,100,6.78,ZA,1673922286
366,Nakamura,32.9833,132.9333,51.66,67,100,2.06,JP,1673922287
367,Mount Gambier,-37.8333,140.7667,97.74,17,99,10.47,AU,1673922287
368,Buan,5.1608,120.0426,82.54,73,99,7.16,PH,1673922288
369,Vila Velha,-20.3297,-40.2925,76.95,91,75,4.61,BR,1673922288
370,Mason City,43.1536,-93.201,35.85,80,100,11.5,US,1673922288
371,Husavik,66.0449,-17.3389,29.12,89,100,22.1,IS,1673922289
372,Lowestoft,52.4752,1.7516,27.41,86,4,10.27,GB,1673922289
373,Fukuechō,32.6881,128.8419,46.76,61,40,10.36,JP,1673922290
374,Karpogory,64.0019,44.4451,22.05,87,100,12.68,RU,1673922290
375,Gornyy,55.1153,83.9059,12.58,94,100,13.27,RU,1673922290
376,Matara,5.9485,80.5353,74.64,91,100,5.7,LK,1673922291
377,Sørland,67.667,12.6934,35.46,77,100,12.82,NO,1673922291
378,Adrar,20.5022,-10.0711,62.11,20,94,10.22,MR,1673922291
379,Marzuq,14.4,46.4667,59.61,45,78,5.97,YE,1673922218
380,Nantucket,41.2835,-70.0995,35.65,87,100,17.27,US,1673922140
381,Kampot,10.6167,104.1833,77.05,67,20,1.52,KH,1673922292
382,Abu Dhabi,24.4667,54.3667,66.22,80,0,1.14,AE,1673922088
383,Boguchany,58.3814,97.4531,-1.73,98,100,4.54,RU,1673922293
384,Kisangani,0.5167,25.2,70.56,80,100,1.74,CD,1673922122
385,Nabire,-3.3667,135.4833,86.02,65,79,4.52,ID,1673922293
386,Piripiri,-4.2733,-41.7769,70.05,97,100,3.13,BR,1673922294
387,Olafsvik,64.8945,-23.7142,28.4,72,65,19.51,IS,1673922294
388,Noumea,-22.2763,166.4572,84.18,66,99,16.96,NC,1673922203
389,Neepawa,50.2289,-99.4664,10.8,93,100,10.31,CA,1673922295
390,Kostanay,53.1667,63.5833,-12.71,70,0,6.71,KZ,1673922081
391,Varaždin,46.3044,16.3378,34.9,86,100,7.16,HR,1673922295
392,Pedersore,63.65,22.6833,33.01,87,33,14.72,FI,1673922296
393,Bayjī,34.9311,43.487,50.76,69,99,6.73,IQ,1673922296
394,Gourcy,13.2167,-2.35,66.92,19,36,9.82,BF,1673922296
395,San Lorenzo,-25.3333,-57.5333,81.59,58,0,5.01,PY,1673922297
396,Waipawa,-41.4122,175.5153,67.96,62,10,5.37,NZ,1673922134
397,Ankang,32.68,109.0172,34.83,54,13,1.97,CN,1673922297
398,Sawtell,-30.3833,153.1,80.62,61,40,10.36,AU,1673922298
399,Aklavik,68.2191,-135.0107,-20.34,100,90,3.24,CA,1673922298
400,Geraldton,-28.7667,114.6,79.21,36,0,17.27,AU,1673922298
401,Cap Malheureux,-19.9842,57.6142,79.47,69,8,8.01,MU,1673922299
402,Garissa,-0.4536,39.6401,74.64,72,21,7.2,KE,1673922299
403,Pindiga,9.9833,10.9333,65.71,27,100,8.99,NG,1673922300
404,Den Helder,52.9599,4.7593,40.98,74,75,18.41,NL,1673922300
405,Tuy Hoa,13.0833,109.3,71.8,89,95,11.43,VN,1673922301
406,Porto-Novo,6.4965,2.6036,80.42,87,5,3.53,BJ,1673922213
407,Ugoofaaru,5.6667,73.0,79.93,78,17,11.63,MV,1673922043
408,Al Bardīyah,31.7561,25.0865,56.14,74,0,9.19,LY,1673922301
409,Avesta,60.1455,16.1679,33.13,99,100,7.9,SE,1673922302
410,Vila,42.0304,-8.1588,41.88,95,98,18.81,PT,1673922303
411,Kununurra,-15.7667,128.7333,85.98,79,40,9.22,AU,1673922161
412,Huangmei,30.1924,116.025,38.57,49,1,1.32,CN,1673922304
413,Alamosa,37.4695,-105.87,24.78,74,20,11.5,US,1673922304
414,Altay,47.8667,88.1167,-3.98,81,94,4.45,CN,1673922305
415,Saint-Philippe,-21.3585,55.7679,73.11,81,34,12.08,RE,1673922305
416,Warrensburg,38.7628,-93.7361,51.87,65,0,9.22,US,1673922306
417,Xinan,26.72,119.8556,45.75,70,96,2.42,CN,1673922306
418,Poddor'ye,57.4695,31.1156,29.8,93,100,7.09,RU,1673922014
419,Isabela,6.7085,121.9711,86.05,71,52,1.63,PH,1673922307
420,Golden,39.7555,-105.2211,39.13,55,75,4.61,US,1673922307
421,Metro,-5.1131,105.3067,78.1,82,100,6.62,ID,1673922308
422,Grants,35.1473,-107.8514,34.03,86,40,5.75,US,1673922308
423,Flinders,-34.5833,150.8552,84.06,64,0,7.0,AU,1673922256
424,Bundaberg,-24.85,152.35,72.21,99,100,1.99,AU,1673922309
425,Erenhot,43.6475,111.9767,4.89,82,7,8.88,CN,1673922310
426,Yulara,-25.2406,130.9889,95.97,24,0,7.56,AU,1673922310
427,Te Anau,-45.4167,167.7167,73.18,44,20,4.03,NZ,1673922044
428,Kjøllefjord,70.9457,27.3465,35.65,80,100,4.61,NO,1673922311
429,Camaná,-16.6228,-72.7111,71.37,82,88,5.03,PE,1673922311
430,Tigzirt,36.8886,4.1198,54.01,75,32,15.12,DZ,1673922312
431,Caçador,-26.7753,-51.015,64.92,99,100,2.55,BR,1673922098
432,Grindavik,63.8424,-22.4338,28.87,74,40,17.27,IS,1673922060
433,Wapakoneta,40.5678,-84.1936,41.92,96,100,13.8,US,1673922188
434,Acapulco de Juárez,16.8634,-99.8901,78.62,73,20,4.61,MX,1673922290
435,Kirensk,57.7853,108.1119,-11.83,97,100,3.09,RU,1673922314
436,Cooma,-36.2333,149.1333,84.0,27,4,4.47,AU,1673922314
437,Manbij,36.5281,37.9549,46.72,85,100,6.44,SY,1673922315
438,Kefar Shemaryahu,32.1856,34.8219,53.19,87,7,8.48,IL,1673922315
439,Lethem,3.3803,-59.7968,78.04,73,89,12.73,GY,1673922316
440,Baoshan,46.5586,131.4244,5.5,74,26,5.39,CN,1673922316
441,Ust-Kuyga,70.0167,135.6,-36.92,99,98,5.1,RU,1673922317
442,Kavaratti,10.5669,72.642,79.23,73,26,7.76,IN,1673922025
443,Bilibino,68.0546,166.4372,-19.32,91,100,5.37,RU,1673922318
444,Lake Havasu City,34.4839,-114.3224,61.41,74,20,16.11,US,1673922318
445,Barra do Garças,-15.89,-52.2567,73.74,92,100,3.04,BR,1673922319
446,Benidorm,38.5382,-0.131,61.59,63,100,29.48,ES,1673922319
447,Olonets,60.9847,32.9698,32.7,91,99,10.87,RU,1673922320
448,Asunción,-25.3007,-57.6359,81.9,57,0,4.61,PY,1673922239
449,Tricase,39.9304,18.3553,51.15,78,100,24.02,IT,1673922321
450,Ponta Delgada,37.7333,-25.6667,56.12,71,75,10.36,PT,1673922321
451,Bonfim,3.0833,-59.95,79.88,69,98,9.1,BR,1673922321
452,Fortuna,40.5982,-124.1573,48.65,88,75,0.0,US,1673922322
453,Garoowe,8.4054,48.4845,65.8,85,5,11.41,SO,1673922322
454,Altagracia de Orituco,9.8601,-66.3814,70.07,87,26,7.27,VE,1673922323
455,Shimoda,34.6667,138.95,46.76,67,97,9.51,JP,1673922057
456,Buarcos,40.166,-8.8768,58.55,86,100,28.59,PT,1673922324
457,Bandi̇̄pur,27.9333,84.4167,40.66,65,0,2.48,NP,1673922324
458,Bekhteyevka,50.8072,37.2085,31.1,91,100,10.92,RU,1673922325
459,Taywarah,33.35,64.4167,11.03,76,16,3.98,AF,1673922325
460,Litovko,49.2361,135.1742,-7.04,88,27,8.41,RU,1673922326
461,Makakilo City,21.3469,-158.0858,80.92,64,0,11.5,US,1673922169
462,Atlantic City,39.3643,-74.4229,39.99,49,0,5.75,US,1673922327
463,Wanning,18.8003,110.3967,63.88,86,97,12.24,CN,1673922327
464,Plymouth,41.8334,-70.8328,34.07,85,100,11.5,US,1673922328
465,Zhangye,38.9342,100.4517,8.6,71,75,4.72,CN,1673922329
466,Ambulu,-8.345,113.6058,81.72,78,98,3.38,ID,1673922329
467,Rodolfo Sánchez Taboada,31.7167,-116.5667,54.1,81,100,7.0,MX,1673922198
468,Ulagan,50.6321,87.9563,8.44,97,99,2.75,RU,1673922330
469,Kuusamo,65.9667,29.1833,30.24,86,100,14.97,FI,1673922330
470,San Rafael,-34.6177,-68.3301,68.59,77,75,4.61,AR,1673922331
471,Keti Bandar,24.1447,67.4497,57.4,24,54,11.01,PK,1673922332
472,Ancud,-41.8697,-73.8203,54.1,82,100,3.58,CL,1673922087
473,Fröndenberg,51.4667,7.7667,37.49,92,100,16.11,DE,1673922332
474,Oruro,-17.9833,-67.15,50.72,47,98,18.45,BO,1673922333
475,Saint John,45.2727,-66.0677,33.8,100,100,16.11,CA,1673922313
476,Mariehamn,60.0973,19.9348,37.26,87,75,6.91,AX,1673922333
477,Evensk,61.95,159.2333,-1.14,77,100,6.46,RU,1673922247
478,Portree,57.4129,-6.1942,34.65,71,91,6.17,GB,1673922334
479,Humaitá,-7.5061,-63.0208,71.94,99,100,2.71,BR,1673922335
480,Chapais,49.7834,-74.8492,6.58,97,12,2.86,CA,1673922335
481,Vao,-22.6667,167.4833,75.72,70,100,16.37,NC,1673922335
482,Grakhovo,56.0502,51.9676,-4.59,91,12,5.46,RU,1673922336
483,Akdepe,42.0551,59.3788,10.49,51,100,8.34,TM,1673922336
484,Ilesha,7.1371,5.2583,70.38,27,66,2.19,NG,1673922336
485,Sivaki,52.6333,126.75,-24.07,93,100,3.87,RU,1673922337
486,Zhuhai,22.2769,113.5678,51.58,76,40,18.41,CN,1673922337
487,Ormara,25.2088,64.6357,64.02,43,40,4.99,PK,1673922183
488,Okha,53.5739,142.9478,-24.27,89,10,9.78,RU,1673922338
489,Deer Lake,49.1667,-57.4316,31.86,100,100,12.66,CA,1673922338
490,Chimoio,-19.1164,33.4833,65.28,98,98,1.99,MZ,1673922338
491,Eyl,7.9803,49.8164,73.15,76,16,13.31,SO,1673922339
492,Ponta Porã,-22.5361,-55.7256,69.6,80,5,5.06,BR,1673922211
493,Daşoguz,41.8363,59.9666,10.35,61,0,2.3,TM,1673922339
494,Palāsa,18.7667,84.4167,70.03,85,23,3.65,IN,1673922340
495,Paharpur,32.1038,70.9724,44.13,17,0,2.91,PK,1673922340
496,Otukpo,7.1913,8.1329,73.47,22,9,2.33,NG,1673922341
497,Port Hedland,-20.3167,118.5667,91.45,58,93,14.97,AU,1673922341
498,Coos Bay,43.3665,-124.2179,46.38,94,0,3.44,US,1673922142
499,Tiarei,-17.5333,-149.3333,84.22,66,59,3.94,PF,1673922341
500,Lichinga,-13.3128,35.2406,62.69,100,75,6.91,MZ,1673922342
501,Korgen,66.0771,13.8153,28.53,93,100,6.82,NO,1673922342
502,Arrondissement de Bressuire,46.9167,-0.5,39.74,97,100,5.35,FR,1673922343
503,Simao,22.7886,100.9748,58.12,52,0,3.04,CN,1673922343
504,Saint Anthony,45.0205,-93.218,34.25,94,100,6.91,US,1673922343
505,Passo de Camaragibe,-9.2368,-35.4901,74.75,87,100,2.33,BR,1673922344
506,Bari,41.1177,16.8512,53.26,76,20,7.0,IT,1673922080
507,Santa Cruz de la Sierra,-17.8,-63.1667,76.46,88,84,4.61,BO,1673922344
508,Macheng,31.1783,115.0319,36.45,46,3,1.92,CN,1673922345
509,Guamúchil,25.4667,-108.1,61.68,67,2,3.2,MX,1673922250
510,Bojnourd,37.4747,57.329,17.55,93,80,2.3,IR,1673922345
511,Denizli Province,37.8402,29.0698,44.83,82,27,4.81,TR,1673922346
512,Rovaniemi,66.5,25.7167,24.21,86,20,19.57,FI,1673922346
513,Chumphon,10.3333,98.8333,74.21,56,14,0.83,TH,1673922346
514,Ciudad Bolivar,8.1222,-63.5497,80.01,61,26,13.8,VE,1673922347
515,Menongue,-14.6585,17.691,63.25,94,100,3.76,AO,1673922347
516,Marshall,34.3834,-86.3333,61.11,65,100,12.66,US,1673922347
517,Lebedinyy,58.5167,125.5167,-38.97,94,100,2.26,RU,1673922348
518,Tessalit,20.1986,1.0114,62.44,21,2,8.9,ML,1673922348
519,Tomatlán,19.9333,-105.25,65.44,61,100,2.8,MX,1673922349
520,Smolenka,52.1352,113.4974,-5.06,65,28,0.0,RU,1673922349
521,Sri Aman,1.2376,111.4621,82.45,78,20,2.3,MY,1673922349
522,Aurich,53.4667,7.4833,37.92,93,100,22.62,DE,1673922350
523,Dingtao,35.0683,115.5625,32.38,47,8,3.24,CN,1673922350
524,Skarnes,60.2528,11.6797,33.62,93,100,9.82,NO,1673922350
525,Manokwari,-0.8667,134.0833,83.28,70,84,4.61,ID,1673922351
526,Centralia,46.7162,-122.9543,46.35,92,100,4.61,US,1673922066
527,Ayan,56.45,138.1667,-28.55,62,63,9.31,RU,1673922351
528,Marabu,4.4148,114.0089,84.34,74,40,3.44,MY,1673922352
529,Udachny,66.4167,112.4,-46.28,98,100,4.34,RU,1673922128
530,Lata,40.1629,-8.3327,57.07,95,100,18.66,PT,1673922352
531,Visby,57.6409,18.296,38.05,87,75,18.41,SE,1673922353
532,Cairns,-16.9167,145.7667,85.95,74,40,4.61,AU,1673922353
533,Nemuro,43.3236,145.575,22.14,59,49,8.55,JP,1673922354
534,West Bay,19.3667,-81.4167,73.47,73,20,6.91,KY,1673922354
535,Yanam,16.7333,82.2167,66.7,90,17,1.19,IN,1673922354
536,Redcar,54.6166,-1.06,29.84,66,5,3.0,GB,1673922355
537,Arman',59.7,150.1667,-11.27,81,100,13.53,RU,1673922355
538,Langsa,4.4683,97.9683,77.59,81,87,4.27,ID,1673922355
539,Zarand,30.8127,56.564,42.17,74,98,0.63,IR,1673922356
540,Bougouni,11.417,-7.479,70.66,16,4,5.46,ML,1673922356
541,Tocopilla,-22.092,-70.1979,69.3,74,3,1.41,CL,1673922357
542,Faya,18.3851,42.4509,53.71,75,99,3.0,SA,1673922357
543,Jati,24.3539,68.2671,53.44,16,3,9.42,PK,1673922357
544,Sangar,63.9242,127.4739,-47.22,99,99,1.21,RU,1673922358
545,Kashgar,39.4547,75.9797,2.41,66,5,8.95,CN,1673922358
546,City of San Pedro,14.35,121.0167,82.35,73,75,5.75,PH,1673922358
547,Kyrenia,35.3417,33.3167,47.75,79,92,10.38,CY,1673922359
548,Kūhdasht,33.535,47.6061,39.63,84,1,2.77,IR,1673922359
549,Aldan,58.6031,125.3894,-38.92,95,100,1.88,RU,1673922360
550,Muhororo,0.9381,30.7594,66.27,50,98,1.79,UG,1673922360
551,Ngaoundéré,7.3167,13.5833,62.37,30,93,3.87,CM,1673922360
552,Rancho Palos Verdes,33.7445,-118.387,56.43,79,40,17.27,US,1673922325
553,Yalutorovsk,56.6536,66.3006,4.55,90,68,7.16,RU,1673922361
554,Victor Harbor,-35.5667,138.6167,85.68,60,100,3.0,AU,1673922361
555,Champerico,14.3,-91.9167,77.58,72,5,8.34,GT,1673922362
556,Waddān,29.1614,16.139,52.48,42,0,6.78,LY,1673922364
557,Seoul,37.5683,126.9778,26.17,50,0,2.3,KR,1673922172
558,Biak,-0.9131,122.8766,82.94,68,78,2.06,ID,1673922365
559,Tezpur,26.6333,92.8,58.37,68,94,3.83,IN,1673922366
560,Cham,47.1821,8.4636,37.56,85,43,2.8,CH,1673922366
561,Poya,-21.35,165.15,79.92,69,98,8.28,NC,1673922367
562,Itarema,-2.9248,-39.9167,75.9,86,100,3.51,BR,1673922369
563,Anderson,34.5334,-82.6499,52.34,58,0,3.44,US,1673922225
564,Hualmay,-11.0964,-77.6139,70.36,77,96,8.28,PE,1673922369
565,Nālūt,30.3333,10.85,46.13,40,0,9.17,LY,1673922101
566,Najrān,17.4924,44.1277,59.65,69,41,5.57,SA,1673922299
567,Mīzan Teferī,6.9833,35.5833,60.96,67,79,2.82,ET,1673922372
